{"success":true,"result":{"resource_id":"A01010000C-000674-011","limit":2000,"total":2000,"fields":[{"type":"text","id":"CityName"},{"type":"text","id":"RegionName"},{"type":"text","id":"Address"},{"type":"text","id":"DeptNm"},{"type":"text","id":"BranchNm"},{"type":"text","id":"Longitude"},{"type":"text","id":"Latitude"},{"type":"text","id":"direct"},{"type":"text","id":"limit"}],"records":[{"CityName":"設置縣市","RegionName":"設置市區鄉鎮","Address":"設置地址","DeptNm":"管轄警局","BranchNm":"管轄分局","Longitude":"經度","Latitude":"緯度","direct":"拍攝方向","limit":"速限"},{"CityName":"金門縣","RegionName":"金城鎮","Address":"西海路1段水頭路段","DeptNm":"金門縣警察局","BranchNm":"金城分局","Longitude":"118.299985","Latitude":"24.411718","direct":"東西雙向","limit":"50"},{"CityName":"金門縣","RegionName":"福建省金門縣金城鎮","Address":"西海路3段金城消防分隊路段","DeptNm":"金門縣警察局","BranchNm":"金城分局","Longitude":"118.310884","Latitude":"24.419437","direct":"東西雙向","limit":"50"},{"CityName":"金門縣","RegionName":"金城鎮","Address":"西海路3段空中大學路段(空中大學附近)","DeptNm":"金門縣警察局","BranchNm":"金城分局","Longitude":"118.312634","Latitude":"24.422648","direct":"東西雙向","limit":"50"},{"CityName":"金門縣","RegionName":"金城鎮","Address":"環島南路1段小西門路段","DeptNm":"金門縣警察局","BranchNm":"金城分局","Longitude":"118.324139","Latitude":"24.413134","direct":"東西雙向","limit":"60"},{"CityName":"金門縣","RegionName":"金沙鎮","Address":"環島北路4段洋山路段(警光會館附近)","DeptNm":"金門縣警察局","BranchNm":"金湖分局","Longitude":"118.406959","Latitude":"24.486644","direct":"東西雙向","limit":"60"},{"CityName":"金門縣","RegionName":"金沙鎮","Address":"高陽路蔡厝路段","DeptNm":"金門縣警察局","BranchNm":"金湖分局","Longitude":"118.419554","Latitude":"24.476989","direct":"東西雙向","limit":"60"},{"CityName":"金門縣","RegionName":"金湖鎮","Address":"環島南路3段環保公園路段(環保局附近)","DeptNm":"金門縣警察局","BranchNm":"金湖分局","Longitude":"118.370319","Latitude":"24.441330","direct":"東西雙向","limit":"60"},{"CityName":"金門縣","RegionName":"福建省金門縣金湖鎮","Address":"瓊徑路小徑路段(小徑茶室附近)","DeptNm":"金門縣警察局","BranchNm":"金湖分局","Longitude":"118.383532","Latitude":"24.449206","direct":"南北雙向","limit":"50"},{"CityName":"金門縣","RegionName":"金湖鎮","Address":"環島南路4段后園路段(168加油站附近)","DeptNm":"金門縣警察局","BranchNm":"金湖分局","Longitude":"118.403395","Latitude":"24.437878","direct":"東西雙向","limit":"50"},{"CityName":"金門縣","RegionName":"福建省金門縣金湖鎮","Address":"太湖路1段鑑潭山莊路段(鑑潭山莊附近)","DeptNm":"金門縣警察局","BranchNm":"金湖分局","Longitude":"118.408110","Latitude":"24.444570","direct":"東西雙向","limit":"50"},{"CityName":"金門縣","RegionName":"金湖鎮","Address":"黃海路監理站路段","DeptNm":"金門縣警察局","BranchNm":"金湖分局","Longitude":"118.417382","Latitude":"24.446644","direct":"南北雙向","limit":"50"},{"CityName":"金門縣","RegionName":"金湖鎮","Address":"金港路料羅路段","DeptNm":"金門縣警察局","BranchNm":"金湖分局","Longitude":"118.434212","Latitude":"24.419786","direct":"南北雙向","limit":"50"},{"CityName":"金門縣","RegionName":"金寧鄉","Address":"慈湖路湖下路段","DeptNm":"金門縣警察局","BranchNm":"金城分局","Longitude":"118.309651","Latitude":"24.44904","direct":"南北雙向","limit":"50"},{"CityName":"金門縣","RegionName":"金寧鄉","Address":"環島北路1段鎮西路段","DeptNm":"金門縣警察局","BranchNm":"金城分局","Longitude":"118.330722","Latitude":"24.448358","direct":"東西雙向","limit":"60"},{"CityName":"金門縣","RegionName":"金寧鄉","Address":"環島南路1段后湖路段","DeptNm":"金門縣警察局","BranchNm":"金城分局","Longitude":"118.331800","Latitude":"24.416346","direct":"東西雙向","limit":"60"},{"CityName":"金門縣","RegionName":"金寧鄉","Address":"桃園路金寧加油站路段(金寧加油站附近)","DeptNm":"金門縣警察局","BranchNm":"金城分局","Longitude":"118.337681","Latitude":"24.430234","direct":"東西雙向","limit":"60"},{"CityName":"金門縣","RegionName":"金寧鄉","Address":"環島北路2段頂堡路段(環北頂林路口附近)","DeptNm":"金門縣警察局","BranchNm":"金城分局","Longitude":"118.338370","Latitude":"24.449810","direct":"東西雙向","limit":"60"},{"CityName":"金門縣","RegionName":"金寧鄉","Address":"伯玉路2段盤果路口","DeptNm":"金門縣警察局","BranchNm":"金城分局","Longitude":"118.340612","Latitude":"24.441227","direct":"東西雙向","limit":"70"},{"CityName":"金門縣","RegionName":"金寧鄉","Address":"環島南路1段中心教練場路段(中心教練場附近)","DeptNm":"金門縣警察局","BranchNm":"金城分局","Longitude":"118.342362","Latitude":"24.425800","direct":"東西雙向","limit":"60"},{"CityName":"金門縣","RegionName":"金寧鄉","Address":"桃園路雙乳山路段","DeptNm":"金門縣警察局","BranchNm":"金城分局","Longitude":"118.355654","Latitude":"24.436017","direct":"東西雙向","limit":"60"},{"CityName":"金門縣","RegionName":"金寧鄉","Address":"環島北路2段后盤山路段","DeptNm":"金門縣警察局","BranchNm":"金城分局","Longitude":"118.357931","Latitude":"24.453361","direct":"東西雙向","limit":"60"},{"CityName":"金門縣","RegionName":"金湖鎮","Address":"黃海路陽明湖路段(陽明營區附近)","DeptNm":"金門縣警察局","BranchNm":"金湖分局","Longitude":"118.431476","Latitude":"24.458809","direct":"南北雙向","limit":"60"},{"CityName":"金門縣","RegionName":"金城鎮","Address":"民生路與民權路口(科技執法)","DeptNm":"金門縣警察局","BranchNm":"金城分局","Longitude":"118.318362","Latitude":"24.437089","direct":"雙向","limit":"60"},{"CityName":"金門縣","RegionName":"金城鎮","Address":"民權路與環島西路2段路口(科技執法)","DeptNm":"金門縣警察局","BranchNm":"金城分局","Longitude":"118.321094","Latitude":"24.439910","direct":"雙向","limit":"60"},{"CityName":"金門縣","RegionName":"金寧鄉","Address":"伯玉路3段與中山路口(科技執法)","DeptNm":"金門縣警察局","BranchNm":"金城分局","Longitude":"118.365003","Latitude":"24.445987","direct":"雙向","limit":"60"},{"CityName":"金門縣","RegionName":"金湖鎮","Address":"環島南路4段與瓊徑路口(科技執法)","DeptNm":"金門縣警察局","BranchNm":"金城分局","Longitude":"118.391814","Latitude":"24.440480","direct":"東西雙向","limit":"50"},{"CityName":"金門縣","RegionName":"金城鎮","Address":"民權路永豐銀行段","DeptNm":"金門縣警察局","BranchNm":"金城分局","Longitude":"118.320671","Latitude":"24.439543","direct":"南北雙向","limit":"40"},{"CityName":"金門縣","RegionName":"金城鎮","Address":"西海路2段金豐路口","DeptNm":"金門縣警察局","BranchNm":"金城分局","Longitude":"118.304027","Latitude":"24.414368","direct":"東西雙向","limit":"50"},{"CityName":"金門縣","RegionName":"金寧鄉","Address":"伯玉路2段近家樂福段","DeptNm":"金門縣警察局","BranchNm":"金城分局","Longitude":"118.336452","Latitude":"24.440141","direct":"東西雙向","limit":"60"},{"CityName":"金門縣","RegionName":"金寧鄉","Address":"伯玉路3段中山林段","DeptNm":"金門縣警察局","BranchNm":"金城分局","Longitude":"118.359874","Latitude":"24.445691","direct":"東西雙向","limit":"70"},{"CityName":"金門縣","RegionName":"金寧鄉","Address":"伯玉路3段中山路口","DeptNm":"金門縣警察局","BranchNm":"金城分局","Longitude":"118.365593","Latitude":"24.446031","direct":"東西雙向","limit":"70"},{"CityName":"金門縣","RegionName":"金寧鄉","Address":"桃園路盤果路口","DeptNm":"金門縣警察局","BranchNm":"金城分局","Longitude":"118.345557","Latitude":"24.432312","direct":"東西雙向","limit":"60"},{"CityName":"金門縣","RegionName":"金城鎮","Address":"環島西路1段賢庵國小路段","DeptNm":"金門縣警察局","BranchNm":"金城分局","Longitude":"118.318442","Latitude":"24.417084","direct":"南北雙向","limit":"50"},{"CityName":"金門縣","RegionName":"金城鎮","Address":"環島西路2段長伶旅行社旁","DeptNm":"金門縣警察局","BranchNm":"金城分局","Longitude":"118.320486","Latitude":"24.441479","direct":"南北雙向","limit":"60"},{"CityName":"金門縣","RegionName":"金湖鎮","Address":"環島南路4段夏興路段","DeptNm":"金門縣警察局","BranchNm":"金湖分局","Longitude":"118.393990","Latitude":"24.439453","direct":"東西雙向","limit":"50"},{"CityName":"金門縣","RegionName":"金湖鎮","Address":"瓊徑路陳坑路段","DeptNm":"金門縣警察局","BranchNm":"金湖分局","Longitude":"118.391731","Latitude":"24.440442","direct":"東西雙向","limit":"50"},{"CityName":"金門縣","RegionName":"烈嶼鄉","Address":"八青路楊厝段路燈编 50385","DeptNm":"金門縣警察局","BranchNm":"烈嶼分局","Longitude":"118.23277","Latitude":"24.41834","direct":"東西雙向","limit":"60"}]}}

